{"type":"FeatureCollection","features":[{"type":"Feature","properties":{"marker-color":"#d53939","marker-size":"medium","marker-symbol":"lighthouse","name":"אוניברסיטת בר אילן","available":0},"geometry":{"type":"Point","coordinates":[34.846046,32.073452]}},{"type":"Feature","properties":{"marker-color":"#39c093","marker-size":"medium","marker-symbol":"lighthouse","name":"קניון קרית אונו","available":1},"geometry":{"type":"Point","coordinates":[34.86348,32.055866]}},{"type":"Feature","properties":{"marker-color":"#d53939","marker-size":"medium","marker-symbol":"lighthouse","name":"שיבא","available":0},"geometry":{"type":"Point","coordinates":[34.84561,32.048477]}},{"type":"Feature","properties":{"marker-color":"#d53939","marker-size":"medium","marker-symbol":"lighthouse","name":"שיבא-מרכז שיקום","available":0},"geometry":{"type":"Point","coordinates":[34.84878,32.047718]}},{"type":"Feature","properties":{"marker-color":"#d53939","marker-size":"medium","marker-symbol":"lighthouse","name":"שיבא-חניון דרומי","available":0},"geometry":{"type":"Point","coordinates":[34.84608,32.04368]}},{"type":"Feature","properties":{"marker-color":"#39c093","marker-size":"medium","marker-symbol":"lighthouse","name":"שיבא-חניון מרכזי","available":1},"geometry":{"type":"Point","coordinates":[34.842045,32.04779]}},{"type":"Feature","properties":{"marker-color":"#39c093","marker-size":"medium","marker-symbol":"lighthouse","name":"מתחם פרנדלי-גבעתיים","available":1},"geometry":{"type":"Point","coordinates":[34.809616,32.0789]}},{"type":"Feature","properties":{"marker-color":"#53c0ee","marker-size":"medium","marker-symbol":"","name":"אמות פלטיניום-פ\"ת","available":0},"geometry":{"type":"Point","coordinates":[34.847057,32.095455]}},{"type":"Feature","properties":{"marker-color":"#39c093","marker-size":"medium","marker-symbol":"lighthouse","name":"רייכמן סוכנות טויוטה","available":1},"geometry":{"type":"Point","coordinates":[34.825706,32.097225]}},{"type":"Feature","properties":{"marker-color":"#d53939","marker-size":"medium","marker-symbol":"lighthouse","name":"חניון הירקון-סנטרל פארק","available":0},"geometry":{"type":"Point","coordinates":[34.823895,32.095394]}},{"type":"Feature","properties":{"marker-color":"#39c093","marker-size":"medium","marker-symbol":"lighthouse","name":"קניון ביאליק רמת גן","available":1},"geometry":{"type":"Point","coordinates":[34.81143,32.08586]}},{"type":"Feature","properties":{"marker-color":"#39c093","marker-size":"medium","marker-symbol":"lighthouse","name":"חניון התאומים","available":1},"geometry":{"type":"Point","coordinates":[34.805714,32.083717]}},{"type":"Feature","properties":{"marker-color":"#d53939","marker-size":"medium","marker-symbol":"lighthouse","name":"איטריום אמות ציבורי","available":0},"geometry":{"type":"Point","coordinates":[34.801395,32.082584]}},{"type":"Feature","properties":{"marker-color":"#39c093","marker-size":"medium","marker-symbol":"lighthouse","available":1},"geometry":{"type":"Point","coordinates":[34.80177,32.084446]}},{"type":"Feature","properties":{"marker-color":"#53c0ee","marker-size":"medium","marker-symbol":"","name":"סיטי טאוור-סנטרל פארק","available":2},"geometry":{"type":"Point","coordinates":[34.79972,32.08454]}},{"type":"Feature","properties":{"marker-color":"#7e7e7e","marker-size":"medium","marker-symbol":"","available":1,"name":"קניון סי מול - אשדוד"},"geometry":{"type":"Point","coordinates":[34.63894,31.792881]}},{"type":"Feature","properties":{"marker-color":"#7e7e7e","marker-size":"medium","marker-symbol":"","available":0,"name":"לאונרדו פלאזה אשדוד - לאורחי המלון בלבד"},"geometry":{"type":"Point","coordinates":[34.621075,31.770966]}},{"type":"Feature","properties":{"marker-color":"#7e7e7e","marker-size":"medium","marker-symbol":"","available":0,"name":" קניון רמות"},"geometry":{"type":"Point","coordinates":[35.1943,31.81764]}},{"type":"Feature","properties":{"marker-color":"#7e7e7e","marker-size":"medium","marker-symbol":"","available":2,"name":"חניון קרתא - סנטרל פארק"},"geometry":{"type":"Point","coordinates":[35.22491,31.777306]}},{"type":"Feature","properties":{"marker-color":"#7e7e7e","marker-size":"medium","marker-symbol":"","available":1,"name":"קניון לב תלפיות JTLV"},"geometry":{"type":"Point","coordinates":[35.20858,31.750578]}},{"type":"Feature","properties":{"marker-color":"#7e7e7e","marker-size":"medium","marker-symbol":"","available":1,"name":"גב ים באר שבע - בניין 4 ציבורי"},"geometry":{"type":"Point","coordinates":[34.813606,31.26371]}},{"type":"Feature","properties":{"marker-color":"#7e7e7e","marker-size":"medium","marker-symbol":"","available":0,"name":"מחסני השוק- באר שבע שכונה ט'"},"geometry":{"type":"Point","coordinates":[34.780205,31.245869]}},{"type":"Feature","properties":{"marker-color":"#7e7e7e","marker-size":"medium","marker-symbol":"","available":1,"name":"קניון לב המפרץ"},"geometry":{"type":"Point","coordinates":[35.037666,32.7934]}},{"type":"Feature","properties":{"marker-color":"#7e7e7e","marker-size":"medium","marker-symbol":"","available":2,"name":"יפה נוף - אנקווה"},"geometry":{"type":"Point","coordinates":[34.959164,32.817345]}},{"type":"Feature","properties":{"marker-color":"#7e7e7e","marker-size":"medium","marker-symbol":"","available":0,"name":" יפה נוף - מחניים"},"geometry":{"type":"Point","coordinates":[34.986343,32.80343]}},{"type":"Feature","properties":{"marker-color":"#7e7e7e","marker-size":"medium","marker-symbol":"","available":1,"name":"מתמ חיפה בניין 25 (מערבי) - אינטל"},"geometry":{"type":"Point","coordinates":[34.957573,32.787357]}}]}